locations_callback(
{
  "type": "FeatureCollection",
  "features": [
    {
      "type": "Feature",
      "properties": {
        "marker-color": "#7e7e7e",
        "marker-size": "medium",
        "marker-symbol": "",
        "city": "state college",
        "country": "united states"
      },
      "geometry": {
        "type": "Point",
        "coordinates": [
          -77.86457061767578,
          40.793278730537196
        ]
      }
    },
    {
      "type": "Feature",
      "properties": {
        "marker-color": "#7e7e7e",
        "marker-size": "medium",
        "marker-symbol": "",
        "city": "syracuse",
        "country": "united states"
      },
      "geometry": {
        "type": "Point",
        "coordinates": [
          -76.14898681640625,
          43.049321576177284
        ]
      }
    },
    {
      "type": "Feature",
      "properties": {
        "marker-color": "#7e7e7e",
        "marker-size": "medium",
        "marker-symbol": "",
        "city": "charlottesville",
        "country": "united states"
      },
      "geometry": {
        "type": "Point",
        "coordinates": [
          -78.48907470703125,
          38.04268357749736
        ]
      }
    },
    {
      "type": "Feature",
      "properties": {
        "city": "casper",
        "country": "united states"
      },
      "geometry": {
        "type": "Point",
        "coordinates": [
          -106.32156372070312,
          42.849792501926466
        ]
      }
    },
    {
      "type": "Feature",
      "properties": {
        "marker-color": "#7e7e7e",
        "marker-size": "medium",
        "marker-symbol": "",
        "city": "chicago",
        "country": "united states"
      },
      "geometry": {
        "type": "Point",
        "coordinates": [
          -87.6324462890625,
          41.870583462266836
        ]
      }
    },
    {
      "type": "Feature",
      "properties": {
        "marker-color": "#7e7e7e",
        "marker-size": "medium",
        "marker-symbol": "",
        "city": "washington",
        "country": "united states"
      },
      "geometry": {
        "type": "Point",
        "coordinates": [
          -77.02651977539062,
          38.89530825492018
        ]
      }
    },
    {
      "type": "Feature",
      "properties": {
        "marker-color": "#7e7e7e",
        "marker-size": "medium",
        "marker-symbol": "",
        "city": "san diego",
        "country": "united states"
      },
      "geometry": {
        "type": "Point",
        "coordinates": [
          -117.24746704101561,
          32.802281861547314
        ]
      }
    },
    {
      "type": "Feature",
      "properties": {
        "marker-color": "#7e7e7e",
        "marker-size": "medium",
        "marker-symbol": "",
        "city": "san francisco",
        "country": "united states"
      },
      "geometry": {
        "type": "Point",
        "coordinates": [
          -122.40966796874999,
          37.788624026050876
        ]
      }
    },
    {
      "type": "Feature",
      "properties": {
        "marker-color": "#7e7e7e",
        "marker-size": "medium",
        "marker-symbol": "",
        "city": "los angeles",
        "country": "united states"
      },
      "geometry": {
        "type": "Point",
        "coordinates": [
          -118.34747314453125,
          34.076549928891744
        ]
      }
    },
    {
      "type": "Feature",
      "properties": {
        "marker-color": "#7e7e7e",
        "marker-size": "medium",
        "marker-symbol": "",
        "city": "austin",
        "country": "united states"
      },
      "geometry": {
        "type": "Point",
        "coordinates": [
          -97.75222778320312,
          30.260253384089417
        ]
      }
    },
    {
      "type": "Feature",
      "properties": {
        "marker-color": "#7e7e7e",
        "marker-size": "medium",
        "marker-symbol": "",
        "city": "miami",
        "country": "united states"
      },
      "geometry": {
        "type": "Point",
        "coordinates": [
          -80.28121948242188,
          25.762174960200042
        ]
      }
    },
    {
      "type": "Feature",
      "properties": {
        "marker-color": "#7e7e7e",
        "marker-size": "medium",
        "marker-symbol": "",
        "city": "philadelphia",
        "country": "united states"
      },
      "geometry": {
        "type": "Point",
        "coordinates": [
          -75.16845703124999,
          39.95554342883535
        ]
      }
    },
    {
      "type": "Feature",
      "properties": {
        "marker-color": "#7e7e7e",
        "marker-size": "medium",
        "marker-symbol": "",
        "city": "pittsburgh",
        "country": "united states"
      },
      "geometry": {
        "type": "Point",
        "coordinates": [
          -80.01480102539062,
          40.44590196740629
        ]
      }
    },
    {
      "type": "Feature",
      "properties": {
        "marker-color": "#7e7e7e",
        "marker-size": "medium",
        "marker-symbol": "",
        "city": "new york",
        "country": "united states"
      },
      "geometry": {
        "type": "Point",
        "coordinates": [
          -73.99463653564453,
          40.73086864241804
        ]
      }
    },
    {
      "type": "Feature",
      "properties": {
        "marker-color": "#7e7e7e",
        "marker-size": "medium",
        "marker-symbol": "",
        "city": "brooklyn",
        "country": "united states"
      },
      "geometry": {
        "type": "Point",
        "coordinates": [
          -73.9877700805664,
          40.69781959724633
        ]
      }
    },
    {
      "type": "Feature",
      "properties": {},
      "geometry": {
        "type": "Point",
        "coordinates": [
          -73.95378112792969,
          40.72696606629052
        ]
      }
    },
    {
      "type": "Feature",
      "properties": {
        "marker-color": "#7e7e7e",
        "marker-size": "medium",
        "marker-symbol": "",
        "city": "boston",
        "country": "united states"
      },
      "geometry": {
        "type": "Point",
        "coordinates": [
          -71.05716705322266,
          42.3641249807027
        ]
      }
    },
    {
      "type": "Feature",
      "properties": {
        "marker-color": "#7e7e7e",
        "marker-size": "medium",
        "marker-symbol": "",
        "city": "orlanda",
        "country": "united states"
      },
      "geometry": {
        "type": "Point",
        "coordinates": [
          -81.38809204101562,
          28.524209256944935
        ]
      }
    },
    {
      "type": "Feature",
      "properties": {
        "marker-color": "#7e7e7e",
        "marker-size": "medium",
        "marker-symbol": "",
        "city": "montreal",
        "country": "canada"
      },
      "geometry": {
        "type": "Point",
        "coordinates": [
          -73.6083984375,
          45.49575902279182
        ]
      }
    },
    {
      "type": "Feature",
      "properties": {
        "marker-color": "#7e7e7e",
        "marker-size": "medium",
        "marker-symbol": "",
        "city": "quebec",
        "country": "canada"
      },
      "geometry": {
        "type": "Point",
        "coordinates": [
          -71.20857238769531,
          46.83671012836047
        ]
      }
    },
    {
      "type": "Feature",
      "properties": {
        "marker-color": "#7e7e7e",
        "marker-size": "medium",
        "marker-symbol": "",
        "city": "toronto",
        "country": "canada"
      },
      "geometry": {
        "type": "Point",
        "coordinates": [
          -79.39544677734375,
          43.65893055889356
        ]
      }
    },
    {
      "type": "Feature",
      "properties": {
        "marker-color": "#7e7e7e",
        "marker-size": "medium",
        "marker-symbol": "",
        "city": "ottawa",
        "country": "canada"
      },
      "geometry": {
        "type": "Point",
        "coordinates": [
          -75.684814453125,
          45.41966030640988
        ]
      }
    },
    {
      "type": "Feature",
      "properties": {
        "marker-color": "#7e7e7e",
        "marker-size": "medium",
        "marker-symbol": "",
        "city": "stockholm",
        "country": "sweden"
      },
      "geometry": {
        "type": "Point",
        "coordinates": [
          18.0780029296875,
          59.32618430580267
        ]
      }
    },
    {
      "type": "Feature",
      "properties": {
        "marker-color": "#7e7e7e",
        "marker-size": "medium",
        "marker-symbol": "",
        "city": "gothenburg",
        "country": "sweden"
      },
      "geometry": {
        "type": "Point",
        "coordinates": [
          11.966171264648438,
          57.70561467912492
        ]
      }
    },
    {
      "type": "Feature",
      "properties": {
        "marker-color": "#7e7e7e",
        "marker-size": "medium",
        "marker-symbol": "",
        "city": "lund",
        "country": "sweden"
      },
      "geometry": {
        "type": "Point",
        "coordinates": [
          13.192520141601562,
          55.70545032520288
        ]
      }
    },
    {
      "type": "Feature",
      "properties": {
        "marker-color": "#7e7e7e",
        "marker-size": "medium",
        "marker-symbol": "",
        "city": "halmstad",
        "country": "sweden"
      },
      "geometry": {
        "type": "Point",
        "coordinates": [
          12.851943969726562,
          56.676601794483275
        ]
      }
    },
    {
      "type": "Feature",
      "properties": {
        "marker-color": "#7e7e7e",
        "marker-size": "medium",
        "marker-symbol": "",
        "city": "rydobruk",
        "country": "sweden"
      },
      "geometry": {
        "type": "Point",
        "coordinates": [
          13.14291000366211,
          56.961262538920636
        ]
      }
    },
    {
      "type": "Feature",
      "properties": {
        "marker-color": "#7e7e7e",
        "marker-size": "medium",
        "marker-symbol": "",
        "city": "hyltebruk",
        "country": "sweden"
      },
      "geometry": {
        "type": "Point",
        "coordinates": [
          13.238525390625,
          57.00148485636346
        ]
      }
    },
    {
      "type": "Feature",
      "properties": {
        "marker-color": "#7e7e7e",
        "marker-size": "medium",
        "marker-symbol": "",
        "city": "torup",
        "country": "sweden"
      },
      "geometry": {
        "type": "Point",
        "coordinates": [
          13.074417114257812,
          56.95508503406534
        ]
      }
    },
    {
      "type": "Feature",
      "properties": {
        "marker-color": "#7e7e7e",
        "marker-size": "medium",
        "marker-symbol": "",
        "city": "rome",
        "country": "italy"
      },
      "geometry": {
        "type": "Point",
        "coordinates": [
          12.479095458984375,
          41.89716623689334
        ]
      }
    },
    {
      "type": "Feature",
      "properties": {
        "marker-color": "#7e7e7e",
        "marker-size": "medium",
        "marker-symbol": "",
        "city": "venice",
        "country": "italy"
      },
      "geometry": {
        "type": "Point",
        "coordinates": [
          12.326831817626953,
          45.43857416356619
        ]
      }
    },
    {
      "type": "Feature",
      "properties": {
        "marker-color": "#7e7e7e",
        "marker-size": "medium",
        "marker-symbol": "",
        "city": "florence",
        "country": "italy"
      },
      "geometry": {
        "type": "Point",
        "coordinates": [
          11.254119873046875,
          43.77208547578765
        ]
      }
    },
    {
      "type": "Feature",
      "properties": {
        "marker-color": "#7e7e7e",
        "marker-size": "medium",
        "marker-symbol": "",
        "city": "queenstown",
        "country": "new zealand"
      },
      "geometry": {
        "type": "Point",
        "coordinates": [
          168.6346435546875,
          -45.02695045318544
        ]
      }
    },
    {
      "type": "Feature",
      "properties": {
        "marker-color": "#7e7e7e",
        "marker-size": "medium",
        "marker-symbol": "",
        "city": "auckland",
        "country": "new zealand"
      },
      "geometry": {
        "type": "Point",
        "coordinates": [
          174.77050781249997,
          -36.85435108768683
        ]
      }
    },
    {
      "type": "Feature",
      "properties": {
        "marker-color": "#7e7e7e",
        "marker-size": "medium",
        "marker-symbol": "",
        "city": "milford sound",
        "country": "new zealand"
      },
      "geometry": {
        "type": "Point",
        "coordinates": [
          167.93426513671875,
          -44.66767620116954
        ]
      }
    },
    {
      "type": "Feature",
      "properties": {
        "marker-color": "#7e7e7e",
        "marker-size": "medium",
        "marker-symbol": "",
        "city": "bozeman",
        "country": "united states"
      },
      "geometry": {
        "type": "Point",
        "coordinates": [
          -111.06353759765625,
          45.69083283645816
        ]
      }
    },
    {
      "type": "Feature",
      "properties": {
        "marker-color": "#7e7e7e",
        "marker-size": "medium",
        "marker-symbol": "",
        "city": "missoula",
        "country": "united states"
      },
      "geometry": {
        "type": "Point",
        "coordinates": [
          -114.00238037109375,
          46.87709089874478
        ]
      }
    },
    {
      "type": "Feature",
      "properties": {
        "marker-color": "#7e7e7e",
        "marker-size": "medium",
        "marker-symbol": "",
        "city": "cusco",
        "country": "peru"
      },
      "geometry": {
        "type": "Point",
        "coordinates": [
          -71.96971893310547,
          -13.51917291815341
        ]
      }
    },
    {
      "type": "Feature",
      "properties": {
        "marker-color": "#7e7e7e",
        "marker-size": "medium",
        "marker-symbol": "",
        "city": "san juan",
        "country": "puerto rico"
      },
      "geometry": {
        "type": "Point",
        "coordinates": [
          -66.0940933227539,
          18.454208827872655
        ]
      }
    },
    {
      "type": "Feature",
      "properties": {
        "marker-color": "#7e7e7e",
        "marker-size": "medium",
        "marker-symbol": "",
        "city": "queens",
        "country": "united states"
      },
      "geometry": {
        "type": "Point",
        "coordinates": [
          -73.95240783691405,
          40.74907763805906
        ]
      }
    },
    {
      "type": "Feature",
      "properties": {
        "marker-color": "#7e7e7e",
        "marker-size": "medium",
        "marker-symbol": "",
        "city": "cancun",
        "country": "mexico"
      },
      "geometry": {
        "type": "Point",
        "coordinates": [
          -86.8246078491211,
          21.164242717412606
        ]
      }
    },
    {
      "type": "Feature",
      "properties": {
        "marker-color": "#7e7e7e",
        "marker-size": "medium",
        "marker-symbol": "",
        "city": "paris",
        "country": "france"
      },
      "geometry": {
        "type": "Point",
        "coordinates": [
          2.3476409912109375,
          48.84822491083276
        ]
      }
    },
    {
      "type": "Feature",
      "properties": {
        "marker-color": "#7e7e7e",
        "marker-size": "medium",
        "marker-symbol": "",
        "city": "barcelona",
        "country": "spain"
      },
      "geometry": {
        "type": "Point",
        "coordinates": [
          2.1797561645507812,
          41.38608229923676
        ]
      }
    },
    {
      "type": "Feature",
      "properties": {
        "marker-color": "#7e7e7e",
        "marker-size": "medium",
        "marker-symbol": "",
        "city": "london",
        "country": "england"
      },
      "geometry": {
        "type": "Point",
        "coordinates": [
          -0.12908935546875,
          51.50852877586289
        ]
      }
    },
    {
      "type": "Feature",
      "properties": {
        "marker-color": "#7e7e7e",
        "marker-size": "medium",
        "marker-symbol": "",
        "city": "berlin",
        "country": "germany"
      },
      "geometry": {
        "type": "Point",
        "coordinates": [
          13.38409423828125,
          52.517892228382834
        ]
      }
    },
    {
      "type": "Feature",
      "properties": {
        "marker-color": "#7e7e7e",
        "marker-size": "medium",
        "marker-symbol": "",
        "city": "dubrovnik",
        "country": "croatia"
      },
      "geometry": {
        "type": "Point",
        "coordinates": [
          18.109288215637207,
          42.640746469558714
        ]
      }
    },
    {
      "type": "Feature",
      "properties": {
        "marker-color": "#7e7e7e",
        "marker-size": "medium",
        "marker-symbol": "",
        "city": "split",
        "country": "dubrovnik"
      },
      "geometry": {
        "type": "Point",
        "coordinates": [
          16.4410400390625,
          43.511708955963776
        ]
      }
    },
    {
      "type": "Feature",
      "properties": {
        "marker-color": "#7e7e7e",
        "marker-size": "medium",
        "marker-symbol": "",
        "city": "copenhagen",
        "country": "denmark"
      },
      "geometry": {
        "type": "Point",
        "coordinates": [
          12.564926147460938,
          55.686488181491896
        ]
      }
    },
    {
      "type": "Feature",
      "properties": {
        "marker-color": "#7e7e7e",
        "marker-size": "medium",
        "marker-symbol": "",
        "city": "amsterdam",
        "country": "netherlands"
      },
      "geometry": {
        "type": "Point",
        "coordinates": [
          4.898529052734375,
          52.369730195560706
        ]
      }
    },
    {
      "type": "Feature",
      "properties": {
        "marker-color": "#7e7e7e",
        "marker-size": "medium",
        "marker-symbol": "",
        "city": "budapest",
        "country": "hungary"
      },
      "geometry": {
        "type": "Point",
        "coordinates": [
          19.03106689453125,
          47.48983296422693
        ]
      }
    },
    {
      "type": "Feature",
      "properties": {
        "marker-color": "#7e7e7e",
        "marker-size": "medium",
        "marker-symbol": "",
        "city": "prague",
        "country": "czech republic"
      },
      "geometry": {
        "type": "Point",
        "coordinates": [
          14.42024230957031,
          50.083582032198564
        ]
      }
    }
  ]
}
  )